[{
        "id": "kowloon",
        "name": "Kowloon",
        "hours": "12:00 - 21:00",
        "phone": "86 19 19 98",
        "adress": "Frederiksgade 78",
        "option1": "Tom kha kai - Kokosmælkssuppe med kylling, champignon og koriander",
        "option2": "Kylling i gul karry - Med blandede grøntsager og ris",
        "option3": "Stegt and i oistersauce - Stegt and med grøntsager, kinesiske svampe og ris",
        "review": "4",
        "link": "http://kowloon.dk/banegaardsgade/menukort.html",
        "img": "img/kowloon.png",
        "categories": ["thai"]
    },
    {
        "id": "tuktuk",
        "name": "TukTuk",
        "hours": "11:30 - 21:00",
        "phone": "undefined",
        "adress": "Ny Banegårdsgade 46",
        "option1": "Rød karry",
        "option2": "Panang",
        "option3": "Grøn karry",
        "review": "4",
        "link": "undefined",
        "img": "img/tuktuk.png",
        "categories": ["thai"]
    },
    {
        "id": "anettes",
        "name": "Anettes Sandwich",
        "hours": "09:30 - 20:00",
        "phone": "87 46 07 82",
        "adress": "Sdr. Ringgade 39",
        "option1": "Brød",
        "option2": "",
        "option3": "",
        "review": "4",
        "link": "https://www.anettessandwich.dk/menu/",
        "img": "img/anettessandwich.png",
        "categories": ["sandwich"]
    },
    {
        "id": "glad",
        "name": "Café GLAD",
        "hours": "09:00 - 20:00",
        "phone": "61 42 77 33",
        "adress": "Frederiks allé 127",
        "option1": "Brød",
        "option2": "Grøn morgenskål",
        "option3": "",
        "review": "3",
        "link": "https://wwww.spisdigglad.dk/menu/",
        "img": "img/cafeglad.png",
        "categories": ["sandwich", "morgenmad"]
    },
    {
        "id": "juicestop",
        "name": "Juice Stop",
        "hours": "09:30 - 17:30",
        "phone": "86 12 69 65",
        "adress": "Badstuegade 4",
        "option1": "Panini Grovbrød",
        "option2": "",
        "option3": "",
        "review": "5",
        "link": "http://juicestop.dk/menukort/",
        "img": "img/juicestop.png",
        "categories": ["sandwich"]
    },
    {
        "id": "kallos",
        "name": "Kallos",
        "hours": "16:30 - 21:00",
        "phone": "86 10 11 33",
        "adress": "Badstuegade 4",
        "option1": "Pizza",
        "option2": "",
        "option3": "",
        "review": "5",
        "link": "https://www.kallos.dk/menu",
        "img": "img/kallos.png",
        "categories": ["pizza"]
    },
    {
        "id": "propria",
        "name": "Pizza Propria",
        "hours": "17:00 - 21:00",
        "phone": "81 11 11 07",
        "adress": "Jægergårdsgade 7",
        "option1": "Pizza",
        "option2": "2",
        "option3": "3",
        "review": "5",
        "link": "https://www.pizzapropria.dk/ ",
        "img": "img/propria.png",
        "categories": ["pizza"]
    },
    {
        "id": "byensb",
        "name": "Byens Burger",
        "hours": "11:00 - 23:00",
        "phone": "86 12 70 47",
        "adress": "Badstuegade 4",
        "option1": "Pizza",
        "option2": "Burger",
        "option3": "",
        "review": "5",
        "link": "https://www.byensburger.dk/menu.php",
        "img": "img/byensburger.png",
        "categories": ["pizza", "burger"]
    },
    {
        "id": "pastafresca",
        "name": "Delicatezze Pasta Fresca",
        "hours": "11:30 - 21:00",
        "phone": "86 10 11 33",
        "adress": "Badstuegade 4",
        "option1": "Pasta",
        "option2": "2",
        "option3": "3",
        "review": "5",
        "link": "none",
        "img": "img/delicatezze.png",
        "categories": ["pasta"]
    },
    {
        "id": "grappa",
        "name": "Grappa",
        "hours": "10:00 - 22:00",
        "phone": "86 12 33 43",
        "adress": "Åboulevarden 60",
        "option1": "Pasta",
        "option2": "Pizza",
        "option3": "3",
        "review": "5",
        "link": "https://www.jakobsenco.dk/grappa/",
        "img": "img/grappa.png",
        "categories": ["pasta"]
    },
    {
        "id": "siam",
        "name": "A+ Siam Sushi",
        "hours": "12:00 - 21:30",
        "phone": "86 13 62 70",
        "adress": "Frederiksgade 32",
        "option1": "Soyasovs",
        "option2": "2",
        "option3": "3",
        "review": "5",
        "link": "http://restaurant.aplussiamsushi.dk/restaurant/menu/",
        "img": "img/siam.png",
        "categories": ["sushi"]
    },
    {
        "id": "saichi",
        "name": "Saichi",
        "hours": "12:00 - 22:00",
        "phone": "87 80 00 08",
        "adress": "Jægergårdsgade 81",
        "option1": "1",
        "option2": "2",
        "option3": "3",
        "review": "5",
        "link": "https://saichi.dk/pdf-menu/",
        "img": "img/saichi.png",
        "categories": ["sushi"]
    },
    {
        "id": "karma",
        "name": "Karma Sushi",
        "hours": "17:00 - 21:00",
        "phone": "92 90 19 05",
        "adress": "Vestergade 48",
        "option1": "Soyasauce",
        "option2": "2",
        "option3": "3",
        "review": "5",
        "link": "https://karmasushi.dk/menu/",
        "img": "img/karma.png",
        "categories": ["sushi"]
    },
    {
        "id": "vaca",
        "name": "VACA",
        "hours": "11:30 - 21:00",
        "phone": "92 90 08 06",
        "adress": "Frederiksgade 32",
        "option1": "Chili con carne",
        "option2": "Nachos",
        "option3": "Tacos",
        "review": "5",
        "link": "https://vaca.dk/menu/",
        "img": "img/vaca.png",
        "categories": ["mexi"]
    },
    {
        "id": "faust",
        "name": "Café Faust",
        "hours": "09:30 - 21:30",
        "phone": "86 19 07 06",
        "adress": "Åboulevarden 38",
        "option1": "Brød til brunch og burger",
        "option2": "",
        "option3": "",
        "review": "5",
        "link": "https://cafefaust.dk/",
        "img": "img/faust.png",
        "categories": ["burger"]
    },
    {
        "id": "burgershack",
        "name": "Burger Shack",
        "hours": "11:30-21:00",
        "phone": "70 27 46 50",
        "adress": "Frederiksgade 39",
        "option1": "Burgerbolle",
        "option2": "Pomfritter",
        "option3": "",
        "review": "5",
        "link": "https://cafefaust.dk/",
        "img": "img/burgershack.png",
        "categories": ["burger"]
    },
    {
        "id": "emma",
        "name": "For Emma",
        "hours": "10:00 - 17:00",
        "phone": "86 12 82 72",
        "adress": "Vestergade 15",
        "option1": "Bagværk",
        "option2": "Kager",
        "option3": "",
        "review": "5",
        "link": "https://foremma.dk/",
        "img": "img/foremma.png",
        "categories": ["dessert"]
    },
    {
        "id": "drudenfuss",
        "name": "Café Drudenfuss",
        "hours": "09:00 - 00:00",
        "phone": "86 12 82 72",
        "adress": "Graven 30",
        "option1": "Kage",
        "option2": "2",
        "option3": "3",
        "review": "5",
        "link": "http://drudenfuss.dk/#menucard",
        "img": "img/drudenfuss.png",
        "categories": ["dessert"]
    },
    {
        "id": "socialfoodies",
        "name": "Social Foodies",
        "hours": "10:00 - 22:00",
        "phone": "22 10 01 35",
        "adress": "M.P. Bruuns Gade 60",
        "option1": "Sandwich",
        "option2": "2",
        "option3": "3",
        "review": "5",
        "link": "https://socialfoodies.dk/aarhus/",
        "img": "img/socialfoodies.png",
        "categories": ["dessert"]
    },
    {
        "id": "cafefika",
        "name": "Café Fika",
        "hours": "11:00 - 20:00",
        "phone": "86 12 82 72",
        "adress": "Jægergårdsgade 47",
        "option1": "Brød",
        "option2": "Majspangekager",
        "option3": "3",
        "review": "5",
        "link": "hhttp://cafefika.dk/menu/",
        "img": "img/fika.png",
        "categories": ["morgenmad"]
    },
    {
        "id": "cafefrida",
        "name": "Café Frida",
        "hours": "09:30 - 16:00",
        "phone": "86 12 82 72",
        "adress": "Mejlgade 14",
        "option1": "Brød",
        "option2": "2",
        "option3": "3",
        "review": "5",
        "link": "https://cafefrida.dk/menu/",
        "img": "img/cafefrida.png",
        "categories": ["morgenmad"]
    },
    {
        "id": "melone",
        "name": "Melone",
        "hours": "12:00 - 20:00",
        "phone": "24 14 75 45",
        "adress": "Fredriks Allé 96",
        "option1": "Burgerbolle",
        "option2": "Sandwichbrød",
        "option3": "3",
        "review": "5",
        "link": "https://melone.dk/#menu",
        "img": "img/melone.png",
        "categories": ["vegan"]
    },
    {
        "id": "plantfood",
        "name": "Plant food",
        "hours": "11:30 - 21:00",
        "phone": "50 27 01 56",
        "adress": "Ny Banegårdsgade 46",
        "option1": "Risotto",
        "option2": "Burgerbolle",
        "option3": "3",
        "review": "5",
        "link": "https://plant-food.dk/",
        "img": "img/plantfood.png",
        "categories": ["vegan"]
    },
    {
        "id": "piccolina",
        "name": "Piccolina",
        "hours": "16:00 - 21:00",
        "phone": "23 39 78 19",
        "adress": "Skolegyde 8",
        "option1": "Pizza",
        "option2": "2",
        "option3": "OBS: Pizzaerne bliver bagt i den samme ovn som vores alm. pizzaer, så der kan være spor af gluten",
        "review": "5",
        "link": "https://piccolina.dk/menu-2",
        "img": "img/piccolina.png",
        "categories": ["pasta", "vegan"]
    }

]